[
   {
       "name": "Bắc Giang",
       "lat": 21.333,
       "lon": 106.333
   },
   {
       "name": "Bắc Kạn",
       "lat": 22.167,
       "lon": 105.833
   },
   {
       "name": "Cao Bằng",
       "lat": 22.667,
       "lon": 106
   },
   {
       "name": "Hà Giang",
       "lat": 22.75,
       "lon": 105
   },
   {
       "name": "Lạng Sơn",
       "lat": 21.75,
       "lon": 106.5
   },
   {
       "name": "Phú Thọ",
       "lat": 21.333,
       "lon": 105.167
   },
   {
       "name": "Quảng Ninh",
       "lat": 21.25,
       "lon": 107.333
   },
   {
       "name": "Thái Nguyên",
       "lat": 21.667,
       "lon": 105.833
   },
   {
       "name": "Tuyên Quang",
       "lat": 22.117,
       "lon": 105.25
   },
   {
       "name": "Lào Cai",
       "lat": 22.333,
       "lon": 104
   },
   {
       "name": "Yên Bái",
       "lat": 21.5,
       "lon": 104.667
   },
   {
       "name": "Điện Biên",
       "lat": 21.383,
       "lon": 103.017
   },
   {
       "name": "Hòa Bình",
       "lat": 20.333,
       "lon": 105.25
   },
   {
       "name": "Lai Châu",
       "lat": 22,
       "lon": 103
   },
   {
       "name": "Sơn La",
       "lat": 21.167,
       "lon": 104
   },
   {
       "name": "Bắc Ninh",
       "lat": 21.083,
       "lon": 106.167
   },
   {
       "name": "Hà Nam",
       "lat": 20.583,
       "lon": 106
   },
   {
       "name": "Hải Dương",
       "lat": 20.917,
       "lon": 106.333
   },
   {
       "name": "Hưng Yên",
       "lat": 20.833,
       "lon": 106.083
   },
   {
       "name": "Nam Định",
       "lat": 20.25,
       "lon": 106.25
   },
   {
       "name": "Ninh Bình",
       "lat": 20.25,
       "lon": 105.833
   },
   {
       "name": "Thái Bình",
       "lat": 20.5,
       "lon": 106.333
   },
   {
       "name": "Vĩnh Phúc",
       "lat": 21.3,
       "lon": 105.6
   },
   {
       "name": "Hà Nội",
       "lat": 21.02833,
       "lon": 105.85417
   },
   {
       "name": "Hải Phòng",
       "lat": 20.865139,
       "lon": 106.683833
   },
   {
       "name": "Hà Tĩnh",
       "lat": 18.333,
       "lon": 105.9
   },
   {
       "name": "Nghệ An",
       "lat": 19.333,
       "lon": 104.833
   },
   {
       "name": "Quảng Bình",
       "lat": 17.5,
       "lon": 106.333
   },
   {
       "name": "Quảng Trị",
       "lat": 16.75,
       "lon": 107
   },
   {
       "name": "Thanh Hóa",
       "lat": 20,
       "lon": 105.5
   },
   {
       "name": "Thừa Thiên - Huế",
       "lat": 16.333,
       "lon": 107.583
   },
   {
       "name": "Đắk Lắk",
       "lat": 12.667,
       "lon": 108.05
   },
   {
       "name": "Đắk Nông",
       "lat": 11.983,
       "lon": 107.7
   },
   {
       "name": "Gia Lai",
       "lat": 13.75,
       "lon": 108.25
   },
   {
       "name": "Kon Tum",
       "lat": 14.75,
       "lon": 107.917
   },
   {
       "name": "Lâm Đồng",
       "lat": 11.95,
       "lon": 108.433
   },
   {
       "name": "Bình Định",
       "lat": 14.167,
       "lon": 109
   },
   {
       "name": "Bình Thuận",
       "lat": 10.933,
       "lon": 108.1
   },
   {
       "name": "Khánh Hòa",
       "lat": 12.25,
       "lon": 109.2
   },
   {
       "name": "Ninh Thuận",
       "lat": 11.75,
       "lon": 108.833
   },
   {
       "name": "Phú Yên",
       "lat": 13.167,
       "lon": 109.167
   },
   {
       "name": "Quảng Nam",
       "lat": 15.58333,
       "lon": 107.91667
   },
   {
       "name": "Quảng Ngãi",
       "lat": 15,
       "lon": 108.667
   },
   {
       "name": "Đà Nẵng",
       "lat": 16.06944,
       "lon": 108.20972
   },
   {
       "name": "Bà Rịa - Vũng Tàu",
       "lat": 10.583,
       "lon": 107.25
   },
   {
       "name": "Bình Dương",
       "lat": 11.167,
       "lon": 106.667
   },
   {
       "name": "Bình Phước",
       "lat": 11.75,
       "lon": 106.917
   },
   {
       "name": "Đồng Nai",
       "lat": 11.117,
       "lon": 107.183
   },
   {
       "name": "Tây Ninh",
       "lat": 11.333,
       "lon": 106.167
   },
   {
       "name": "Thành phố Hồ Chí Minh",
       "lat": 10.8,
       "lon": 106.65
   },
   {
       "name": "An Giang",
       "lat": 10.5,
       "lon": 105.167
   },
   {
       "name": "Bạc Liêu",
       "lat": 9.25,
       "lon": 105.75
   },
   {
       "name": "Bến Tre",
       "lat": 10.167,
       "lon": 106.5
   },
   {
       "name": "Cà Mau",
       "lat": 9.083,
       "lon": 105.083
   },
   {
       "name": "Đồng Tháp",
       "lat": 10.667,
       "lon": 105.667
   },
   {
       "name": "Hậu Giang",
       "lat": 9.783,
       "lon": 105.467
   },
   {
       "name": "Kiên Giang",
       "lat": 10,
       "lon": 105.167
   },
   {
       "name": "Long An",
       "lat": 10.667,
       "lon": 106.167
   },
   {
       "name": "Sóc Trăng",
       "lat": 9.667,
       "lon": 105.833
   },
   {
       "name": "Tiền Giang",
       "lat": 10.417,
       "lon": 106.167
   },
   {
       "name": "Trà Vinh",
       "lat": 9.833,
       "lon": 106.25
   },
   {
       "name": "Vĩnh Long",
       "lat": 10.167,
       "lon": 106
   },
   {
       "name": "Cần Thơ",
       "lat": 10.033,
       "lon": 105.783
   }
]